<?xml version="1.0" encoding="UTF-8"?>
<kml xmlns="http://www.opengis.net/kml/2.2">
  <Document>
    <name>XC Entre Rios</name>
    <description/>
    <Style id="icon-1899-0288D1-nodesc-normal">
      <IconStyle>
        <color>ffd18802</color>
        <scale>1</scale>
        <Icon>
          <href>http://www.gstatic.com/mapspro/images/stock/503-wht-blank_maps.png</href>
        </Icon>
        <hotSpot x="16" xunits="pixels" y="32" yunits="insetPixels"/>
      </IconStyle>
      <LabelStyle>
        <scale>0</scale>
      </LabelStyle>
      <BalloonStyle>
        <text><![CDATA[<h3>$[name]</h3>]]></text>
      </BalloonStyle>
    </Style>
    <Style id="icon-1899-0288D1-nodesc-highlight">
      <IconStyle>
        <color>ffd18802</color>
        <scale>1</scale>
        <Icon>
          <href>http://www.gstatic.com/mapspro/images/stock/503-wht-blank_maps.png</href>
        </Icon>
        <hotSpot x="16" xunits="pixels" y="32" yunits="insetPixels"/>
      </IconStyle>
      <LabelStyle>
        <scale>1</scale>
      </LabelStyle>
      <BalloonStyle>
        <text><![CDATA[<h3>$[name]</h3>]]></text>
      </BalloonStyle>
    </Style>
    <StyleMap id="icon-1899-0288D1-nodesc">
      <Pair>
        <key>normal</key>
        <styleUrl>#icon-1899-0288D1-nodesc-normal</styleUrl>
      </Pair>
      <Pair>
        <key>highlight</key>
        <styleUrl>#icon-1899-0288D1-nodesc-highlight</styleUrl>
      </Pair>
    </StyleMap>
    <Folder>
      <name>Untitled layer</name>
      <Placemark>
        <name>Viale</name>
        <styleUrl>#icon-1899-0288D1-nodesc</styleUrl>
        <Point>
          <coordinates>
            -60.0073242,-31.8713622,0
          </coordinates>
        </Point>
      </Placemark>
      <Placemark>
        <name>Club planeadores</name>
        <styleUrl>#icon-1899-0288D1-nodesc</styleUrl>
        <Point>
          <coordinates>
            -60.219841,-31.7349562,0
          </coordinates>
        </Point>
      </Placemark>
      <Placemark>
        <name>Camino tornear P. Piedras</name>
        <styleUrl>#icon-1899-0288D1-nodesc</styleUrl>
        <Point>
          <coordinates>
            -60.122509,-31.6973545,0
          </coordinates>
        </Point>
      </Placemark>
      <Placemark>
        <name>Maria Grande</name>
        <styleUrl>#icon-1899-0288D1-nodesc</styleUrl>
        <Point>
          <coordinates>
            -59.9007225,-31.6610526,0
          </coordinates>
        </Point>
      </Placemark>
      <Placemark>
        <name>Sosa</name>
        <styleUrl>#icon-1899-0288D1-nodesc</styleUrl>
        <Point>
          <coordinates>
            -59.9109364,-31.7361242,0
          </coordinates>
        </Point>
      </Placemark>
      <Placemark>
        <name>Tabossi</name>
        <styleUrl>#icon-1899-0288D1-nodesc</styleUrl>
        <Point>
          <coordinates>
            -59.9331665,-31.8034761,0
          </coordinates>
        </Point>
      </Placemark>
      <Placemark>
        <name>El pingo</name>
        <styleUrl>#icon-1899-0288D1-nodesc</styleUrl>
        <Point>
          <coordinates>
            -59.8916245,-31.5823377,0
          </coordinates>
        </Point>
      </Placemark>
      <Placemark>
        <name>Hasenkamp</name>
        <styleUrl>#icon-1899-0288D1-nodesc</styleUrl>
        <Point>
          <coordinates>
            -59.8342896,-31.5112397,0
          </coordinates>
        </Point>
      </Placemark>
      <Placemark>
        <name>La garzas</name>
        <styleUrl>#icon-1899-0288D1-nodesc</styleUrl>
        <Point>
          <coordinates>
            -59.7443926,-31.4275188,0
          </coordinates>
        </Point>
      </Placemark>
      <Placemark>
        <name>Alcaraz</name>
        <styleUrl>#icon-1899-0288D1-nodesc</styleUrl>
        <Point>
          <coordinates>
            -59.5985556,-31.4560869,0
          </coordinates>
        </Point>
      </Placemark>
      <Placemark>
        <name>Bovril</name>
        <styleUrl>#icon-1899-0288D1-nodesc</styleUrl>
        <Point>
          <coordinates>
            -59.4439316,-31.3386832,0
          </coordinates>
        </Point>
      </Placemark>
      <Placemark>
        <name>Sauce de Luna</name>
        <styleUrl>#icon-1899-0288D1-nodesc</styleUrl>
        <Point>
          <coordinates>
            -59.2200422,-31.2376096,0
          </coordinates>
        </Point>
      </Placemark>
      <Placemark>
        <name>Federal</name>
        <styleUrl>#icon-1899-0288D1-nodesc</styleUrl>
        <Point>
          <coordinates>
            -58.7857819,-30.9493469,0
          </coordinates>
        </Point>
      </Placemark>
      <Placemark>
        <name>Concordia</name>
        <styleUrl>#icon-1899-0288D1-nodesc</styleUrl>
        <Point>
          <coordinates>
            -58.0187988,-31.3911575,0
          </coordinates>
        </Point>
      </Placemark>
      <Placemark>
        <name>San Salvador</name>
        <styleUrl>#icon-1899-0288D1-nodesc</styleUrl>
        <Point>
          <coordinates>
            -58.5059738,-31.6244442,0
          </coordinates>
        </Point>
      </Placemark>
      <Placemark>
        <name>Jubileo</name>
        <styleUrl>#icon-1899-0288D1-nodesc</styleUrl>
        <Point>
          <coordinates>
            -58.6340332,-31.7330583,0
          </coordinates>
        </Point>
      </Placemark>
      <Placemark>
        <name>Villa Clara</name>
        <styleUrl>#icon-1899-0288D1-nodesc</styleUrl>
        <Point>
          <coordinates>
            -58.8213158,-31.8294406,0
          </coordinates>
        </Point>
      </Placemark>
      <Placemark>
        <name>Villaguay</name>
        <styleUrl>#icon-1899-0288D1-nodesc</styleUrl>
        <Point>
          <coordinates>
            -59.0281677,-31.8635625,0
          </coordinates>
        </Point>
      </Placemark>
      <Placemark>
        <name>Paso de la Laguna</name>
        <styleUrl>#icon-1899-0288D1-nodesc</styleUrl>
        <Point>
          <coordinates>
            -59.1594887,-31.8025279,0
          </coordinates>
        </Point>
      </Placemark>
      <Placemark>
        <name>E. Servicio 5 Bocas</name>
        <styleUrl>#icon-1899-0288D1-nodesc</styleUrl>
        <Point>
          <coordinates>
            -59.1660976,-31.8055915,0
          </coordinates>
        </Point>
      </Placemark>
      <Placemark>
        <name>Cerrito</name>
        <styleUrl>#icon-1899-0288D1-nodesc</styleUrl>
        <Point>
          <coordinates>
            -60.0753021,-31.5814602,0
          </coordinates>
        </Point>
      </Placemark>
      <Placemark>
        <name>Aldea Santa Maria</name>
        <styleUrl>#icon-1899-0288D1-nodesc</styleUrl>
        <Point>
          <coordinates>
            -60.0065088,-31.6111783,0
          </coordinates>
        </Point>
      </Placemark>
      <Placemark>
        <name>Hernandarias</name>
        <styleUrl>#icon-1899-0288D1-nodesc</styleUrl>
        <Point>
          <coordinates>
            -59.9855232,-31.2282156,0
          </coordinates>
        </Point>
      </Placemark>
      <Placemark>
        <name>Aldea Maria Luisa</name>
        <styleUrl>#icon-1899-0288D1-nodesc</styleUrl>
        <Point>
          <coordinates>
            -60.4084969,-31.8842629,0
          </coordinates>
        </Point>
      </Placemark>
      <Placemark>
        <name>Villa Fontana</name>
        <styleUrl>#icon-1899-0288D1-nodesc</styleUrl>
        <Point>
          <coordinates>
            -60.4740286,-31.9051771,0
          </coordinates>
        </Point>
      </Placemark>
      <Placemark>
        <name>Oro Verde</name>
        <styleUrl>#icon-1899-0288D1-nodesc</styleUrl>
        <Point>
          <coordinates>
            -60.5204201,-31.8244817,0
          </coordinates>
        </Point>
      </Placemark>
      <Placemark>
        <name>Aeropuerto JJUrquiza</name>
        <styleUrl>#icon-1899-0288D1-nodesc</styleUrl>
        <Point>
          <coordinates>
            -60.4818392,-31.7897069,0
          </coordinates>
        </Point>
      </Placemark>
      <Placemark>
        <name>San Benito</name>
        <styleUrl>#icon-1899-0288D1-nodesc</styleUrl>
        <Point>
          <coordinates>
            -60.4371643,-31.784071,0
          </coordinates>
        </Point>
      </Placemark>
      <Placemark>
        <name>Sauce Pinto</name>
        <styleUrl>#icon-1899-0288D1-nodesc</styleUrl>
        <Point>
          <coordinates>
            -60.3739929,-31.8419097,0
          </coordinates>
        </Point>
      </Placemark>
      <Placemark>
        <name>Segui</name>
        <styleUrl>#icon-1899-0288D1-nodesc</styleUrl>
        <Point>
          <coordinates>
            -60.1247406,-31.954784,0
          </coordinates>
        </Point>
      </Placemark>
      <Placemark>
        <name>Victoria</name>
        <styleUrl>#icon-1899-0288D1-nodesc</styleUrl>
        <Point>
          <coordinates>
            -60.1537514,-32.619569,0
          </coordinates>
        </Point>
      </Placemark>
      <Placemark>
        <name>Nogoya</name>
        <styleUrl>#icon-1899-0288D1-nodesc</styleUrl>
        <Point>
          <coordinates>
            -59.7934341,-32.3903987,0
          </coordinates>
        </Point>
      </Placemark>
      <Placemark>
        <name>Hernandez</name>
        <styleUrl>#icon-1899-0288D1-nodesc</styleUrl>
        <Point>
          <coordinates>
            -60.026722,-32.3367499,0
          </coordinates>
        </Point>
      </Placemark>
      <Placemark>
        <name>Aranguren</name>
        <styleUrl>#icon-1899-0288D1-nodesc</styleUrl>
        <Point>
          <coordinates>
            -60.1618195,-32.2419893,0
          </coordinates>
        </Point>
      </Placemark>
      <Placemark>
        <name>Ramirez</name>
        <styleUrl>#icon-1899-0288D1-nodesc</styleUrl>
        <Point>
          <coordinates>
            -60.2004433,-32.1737236,0
          </coordinates>
        </Point>
      </Placemark>
      <Placemark>
        <name>Camps</name>
        <styleUrl>#icon-1899-0288D1-nodesc</styleUrl>
        <Point>
          <coordinates>
            -60.2283383,-32.1127859,0
          </coordinates>
        </Point>
      </Placemark>
      <Placemark>
        <name>Crespo</name>
        <styleUrl>#icon-1899-0288D1-nodesc</styleUrl>
        <Point>
          <coordinates>
            -60.3093624,-32.0328185,0
          </coordinates>
        </Point>
      </Placemark>
      <Placemark>
        <name>Racedo</name>
        <styleUrl>#icon-1899-0288D1-nodesc</styleUrl>
        <Point>
          <coordinates>
            -60.4086685,-31.9834723,0
          </coordinates>
        </Point>
      </Placemark>
      <Placemark>
        <name>Aldea Chaleco</name>
        <styleUrl>#icon-1899-0288D1-nodesc</styleUrl>
        <Point>
          <coordinates>
            -60.3585434,-31.998541,0
          </coordinates>
        </Point>
      </Placemark>
      <Placemark>
        <name>Aldea Santa Rosa</name>
        <styleUrl>#icon-1899-0288D1-nodesc</styleUrl>
        <Point>
          <coordinates>
            -60.2392817,-32.014517,0
          </coordinates>
        </Point>
      </Placemark>
      <Placemark>
        <name>Aldea Salto</name>
        <styleUrl>#icon-1899-0288D1-nodesc</styleUrl>
        <Point>
          <coordinates>
            -60.5471241,-31.9259227,0
          </coordinates>
        </Point>
      </Placemark>
      <Placemark>
        <name>Villa Valle Maria</name>
        <styleUrl>#icon-1899-0288D1-nodesc</styleUrl>
        <Point>
          <coordinates>
            -60.5861664,-31.9910434,0
          </coordinates>
        </Point>
      </Placemark>
      <Placemark>
        <name>Shell de Valle Maria</name>
        <styleUrl>#icon-1899-0288D1-nodesc</styleUrl>
        <Point>
          <coordinates>
            -60.5856514,-32.0027991,0
          </coordinates>
        </Point>
      </Placemark>
      <Placemark>
        <name>Aldea Protestante</name>
        <styleUrl>#icon-1899-0288D1-nodesc</styleUrl>
        <Point>
          <coordinates>
            -60.5624342,-32.0285618,0
          </coordinates>
        </Point>
      </Placemark>
      <Placemark>
        <name>Strobel</name>
        <styleUrl>#icon-1899-0288D1-nodesc</styleUrl>
        <Point>
          <coordinates>
            -60.6134176,-32.0538081,0
          </coordinates>
        </Point>
      </Placemark>
      <Placemark>
        <name>Diamante</name>
        <styleUrl>#icon-1899-0288D1-nodesc</styleUrl>
        <Point>
          <coordinates>
            -60.6376219,-32.0698108,0
          </coordinates>
        </Point>
      </Placemark>
      <Placemark>
        <name>Puiggari</name>
        <styleUrl>#icon-1899-0288D1-nodesc</styleUrl>
        <Point>
          <coordinates>
            -60.4440308,-32.0543537,0
          </coordinates>
        </Point>
      </Placemark>
      <Placemark>
        <name>Libertador San Martin</name>
        <styleUrl>#icon-1899-0288D1-nodesc</styleUrl>
        <Point>
          <coordinates>
            -60.4613578,-32.0776656,0
          </coordinates>
        </Point>
      </Placemark>
      <Placemark>
        <name>Molino Doll</name>
        <styleUrl>#icon-1899-0288D1-nodesc</styleUrl>
        <Point>
          <coordinates>
            -60.4206848,-32.3073564,0
          </coordinates>
        </Point>
      </Placemark>
      <Placemark>
        <name>Las Cuevas</name>
        <styleUrl>#icon-1899-0288D1-nodesc</styleUrl>
        <Point>
          <coordinates>
            -60.4856586,-32.329969,0
          </coordinates>
        </Point>
      </Placemark>
      <Placemark>
        <name>Rincon del Doll</name>
        <styleUrl>#icon-1899-0288D1-nodesc</styleUrl>
        <Point>
          <coordinates>
            -60.3911591,-32.4383657,0
          </coordinates>
        </Point>
      </Placemark>
      <Placemark>
        <name>Petrobras Victoria</name>
        <styleUrl>#icon-1899-0288D1-nodesc</styleUrl>
        <Point>
          <coordinates>
            -60.3144693,-32.4204354,0
          </coordinates>
        </Point>
      </Placemark>
      <Placemark>
        <name>Gualeguay</name>
        <styleUrl>#icon-1899-0288D1-nodesc</styleUrl>
        <Point>
          <coordinates>
            -59.3151855,-33.1433007,0
          </coordinates>
        </Point>
      </Placemark>
      <Placemark>
        <name>Rincon de Nogoya</name>
        <styleUrl>#icon-1899-0288D1-nodesc</styleUrl>
        <Point>
          <coordinates>
            -59.908576,-32.7804915,0
          </coordinates>
        </Point>
      </Placemark>
      <Placemark>
        <name>Febre</name>
        <styleUrl>#icon-1899-0288D1-nodesc</styleUrl>
        <Point>
          <coordinates>
            -59.9133825,-32.4762069,0
          </coordinates>
        </Point>
      </Placemark>
      <Placemark>
        <name>Belbeder</name>
        <styleUrl>#icon-1899-0288D1-nodesc</styleUrl>
        <Point>
          <coordinates>
            -59.9291754,-32.3724408,0
          </coordinates>
        </Point>
      </Placemark>
      <Placemark>
        <name>Antelo</name>
        <styleUrl>#icon-1899-0288D1-nodesc</styleUrl>
        <Point>
          <coordinates>
            -60.0350046,-32.532378,0
          </coordinates>
        </Point>
      </Placemark>
      <Placemark>
        <name>Aldea Brasilera</name>
        <styleUrl>#icon-1899-0288D1-nodesc</styleUrl>
        <Point>
          <coordinates>
            -60.586853,-31.8877611,0
          </coordinates>
        </Point>
      </Placemark>
      <Placemark>
        <name>Villa Urquiza</name>
        <styleUrl>#icon-1899-0288D1-nodesc</styleUrl>
        <Point>
          <coordinates>
            -60.3774261,-31.6476824,0
          </coordinates>
        </Point>
      </Placemark>
      <Placemark>
        <name>La Picada</name>
        <styleUrl>#icon-1899-0288D1-nodesc</styleUrl>
        <Point>
          <coordinates>
            -60.2942562,-31.7247724,0
          </coordinates>
        </Point>
      </Placemark>
      <Placemark>
        <name>Don Cristobal</name>
        <styleUrl>#icon-1899-0288D1-nodesc</styleUrl>
        <Point>
          <coordinates>
            -59.9945998,-32.0716291,0
          </coordinates>
        </Point>
      </Placemark>
      <Placemark>
        <name>Gualegauychu</name>
        <styleUrl>#icon-1899-0288D1-nodesc</styleUrl>
        <Point>
          <coordinates>
            -58.5214233,-33.0109667,0
          </coordinates>
        </Point>
      </Placemark>
      <Placemark>
        <name>Concepcion del Uruguay</name>
        <styleUrl>#icon-1899-0288D1-nodesc</styleUrl>
        <Point>
          <coordinates>
            -58.2522583,-32.4773292,0
          </coordinates>
        </Point>
      </Placemark>
      <Placemark>
        <name>Colon</name>
        <styleUrl>#icon-1899-0288D1-nodesc</styleUrl>
        <Point>
          <coordinates>
            -58.1468582,-32.2247098,0
          </coordinates>
        </Point>
      </Placemark>
      <Placemark>
        <name>Villa Elisa</name>
        <styleUrl>#icon-1899-0288D1-nodesc</styleUrl>
        <Point>
          <coordinates>
            -58.4060669,-32.1575938,0
          </coordinates>
        </Point>
      </Placemark>
      <Placemark>
        <name>Rosario del Tala</name>
        <styleUrl>#icon-1899-0288D1-nodesc</styleUrl>
        <Point>
          <coordinates>
            -59.1469574,-32.3048355,0
          </coordinates>
        </Point>
      </Placemark>
      <Placemark>
        <name>Urdinarrain</name>
        <styleUrl>#icon-1899-0288D1-nodesc</styleUrl>
        <Point>
          <coordinates>
            -58.8867187,-32.6890873,0
          </coordinates>
        </Point>
      </Placemark>
    </Folder>
  </Document>
</kml>
